[["1","2"],{"id":"3","name":"4","location":"5","bookings":"6"},{"id":"7","name":"8","location":"9","bookings":"10"},"ecc40f25-3e1c-413c-b40f-620ec082ff0d","Samet","Yalova",["11","12","13","14","15","16","17","18","19"],"94a1a90b-50f3-4226-90cf-088d2ceb0242","Betül","Bilecik",["20"],{"driver":"21","passenger":"22","origin":"5","destination":"23","state":"24"},{"driver":"21","passenger":"22","origin":"23","destination":"25","state":"24"},{"driver":"21","passenger":"22","origin":"25","destination":"26","state":"24"},{"driver":"27","passenger":"28","origin":"29","destination":"30","state":"24"},{"driver":"31","passenger":"32","origin":"29","destination":"30","state":"24"},{"driver":"33","passenger":"34","origin":"29","destination":"30","state":"24"},{"driver":"35","passenger":"36","origin":"29","destination":"30","state":"24"},{"driver":"37","passenger":"38","origin":"29","destination":"30","state":"24"},{"driver":"39","passenger":"1","origin":"30","destination":"40","state":"24"},{"driver":"41","passenger":"42","origin":"9","destination":"23","state":"24"},{"name":"43","location":"44"},{"id":"3","name":"4","location":"5","bookings":"6"},"Bursa","","Ankara","Sivas",{"name":"43","location":"44"},{"id":"3","name":"4","location":"5","bookings":"6"},"Çanakkale","Edirne",{"name":"43","location":"44"},{"id":"3","name":"4","location":"5","bookings":"6"},{"name":"43","location":"44"},{"id":"3","name":"4","location":"5","bookings":"6"},{"name":"43","location":"44"},{"id":"3","name":"4","location":"5","bookings":"6"},{"name":"43","location":"44"},{"id":"3","name":"4","location":"5","bookings":"6"},{"name":"43","location":"44"},"Tekirdağ",{"name":"43","location":"44"},{"id":"7","name":"8","location":"9","bookings":"10"},"Stefan","Yalova Sahil"]